[
  {
    "id": "1",
    "name": "남산서울타워",
    "category": "문화/체육",
    "lat": 37.5511225714939,
    "lng": 126.987867837993,
    "place": "서울특별시 용산구 남산공원길 105",
    "operating_time": "연중무휴",
    "fee": "남산공원 입장료 없음",
    "subway": "지하철 4호선 충무로역 3번 출구 남버스 이용",
    "url": "https://www.seoultower.co.kr/"
  },
  {
    "id": "3",
    "name": "용마산 용마폭포공원",
    "category": "공원/광장",
    "lat": 37.5118003827004,
    "lng": 126.958588093172,
    "place": "서울 동대구 면목 산 3-9",
    "operating_time": "이용 시 한 없음",
    "fee": "무료",
    "subway": "9호선 보라매역 3번 출구 남버스 20분",
    "url": null
  },
  {
    "id": "4",
    "name": "창경궁",
    "category": "문화/체육",
    "lat": 37.579412935392185,
    "lng": 126.99522255388881,
    "place": "서울특별시 종로구 창경궁로 185",
    "operating_time": "화~일 09:00~21:00",
    "fee": "유료 대인 1,000원, 한복착용시 무료",
    "subway": "지하철 4호선 혜화역 4번 출구 남버스 이용",
    "url": "https://royal.khs.go.kr/cgg"
  },
  {
    "id": "6",
    "name": "창덕궁",
    "category": "문화/체육",
    "lat": 37.57950279094907,
    "lng": 126.99103378705136,
    "place": "서울특별시 종로구 율곡로 99",
    "operating_time": "화~일 09:00~18:00",
    "fee": "유료 대인 3,000원, 한복착용시 무료",
    "subway": "지하철 1호선 종로3가역 6번 출구 남버스 이용",
    "url": "https://royal.cha.go.kr/cdg"
  },
  {
    "id": "9",
    "name": "청계천",
    "category": "공원/광장",
    "lat": 37.56915554121704,
    "lng": 126.97871950992457,
    "place": "서울 중구 한강로 1가 1",
    "operating_time": "24시간 연중무휴",
    "fee": "무료",
    "subway": "지하철 5호선 광화문역 5번출구에서 약 60m 이동",
    "url": "https://www.sisul.or.kr/open_content/cheonggye/"
  },
  {
    "id": "10",
    "name": "성수대교",
    "category": "공공시설",
    "lat": 37.53617802719353,
    "lng": 127.03489368057885,
    "place": "서울 성동구 장안동 484",
    "operating_time": "일몰 30분전 이후 ~ 23:00 이후",
    "fee": "무료",
    "subway": "(북단) 지하철 2호선 뚝섬역 8번출구 남버스 이용",
    "url": null
  },
  {
    "id": "12",
    "name": "망지거울분수",
    "category": "공공시설",
    "lat": 37.5599345342961,
    "lng": 126.88981563725,
    "place": "서울 마포구 망원동 1536-1",
    "operating_time": "성수기(7~8월) 12:00~21:00, 비수기(4~6월, 9~10월) 12:00~20:00",
    "fee": "무료",
    "subway": "지하철 6호선 마포구청역 7번, 6번 출구 남버스 이용",
    "url": "https://hangang.seoul.go.kr/www/facility/map.tab?srchCd=9054"
  },
  {
    "id": "14",
    "name": "남산공원 백범광장-서울한양도성 성곽",
    "category": "공원/광장",
    "lat": 37.5550484830696,
    "lng": 126.98043243063,
    "place": "서울 중구 한강로1가 산 1-44",
    "operating_time": "상시개방",
    "fee": "무료",
    "subway": "지하철 4호선 명동역 4번 출구 남버스 이용",
    "url": "https://parks.seoul.go.kr/template/sub/namsan.do"
  },
  {
    "id": "18",
    "name": "숭례문(남대문)",
    "category": "문화/체육",
    "lat": 37.5599277853801,
    "lng": 126.975359779271,
    "place": "서울특별시 중구 세종대로 40",
    "operating_time": "화~일 09:00~18:00",
    "fee": "무료",
    "subway": "지하철 1, 2호선 시청역 2번 출구 남버스 이용",
    "url": "https://royal.khs.go.kr/ROYAL/contents/menuInfo-sym.do?grpCode=sym"
  },
  {
    "id": "21",
    "name": "광화문광장(광화문)",
    "category": "공원/광장",
    "lat": 37.5716228232824,
    "lng": 126.976787992565,
    "place": "서울특별시 종로구 세종대로 172",
    "operating_time": "연중무휴",
    "fee": "무료",
    "subway": "지하철 5호선 광화문역 7번 출구 남버스 이용",
    "url": "https://gwanghwamun.seoul.go.kr/"
  },
  {
    "id": "23",
    "name": "동대문디자인플라자(DDP)",
    "category": "문화/체육",
    "lat": 37.56769968798189,
    "lng": 127.00984769474137,
    "place": "서울특별시 중구 을지로 281",
    "operating_time": "10:00 ~ 20:00",
    "fee": "무료",
    "subway": "동대문역사문화공원역 1번, 2번 출구",
    "url": "https://ddp.or.kr/"
  },
  {
    "id": "24",
    "name": "경복궁",
    "category": "문화/체육",
    "lat": 37.5759040910202,
    "lng": 126.976842133821,
    "place": "서울특별시 종로구 사직로 161",
    "operating_time": "1월~2월, 11월~12월 09:00~17:00, 3월~5월, 9월~10월 09:00~18:00, 6월~8월 09:00~18:30",
    "fee": "유료 대인 3,000원, 한복착용시 무료",
    "subway": "지하철 3호선 경복궁 5번 출구 남버스 이용",
    "url": "https://royal.khs.go.kr/gbg"
  },
  {
    "id": "25",
    "name": "서울로미디어캔버스",
    "category": "공공시설",
    "lat": 37.5566331857979,
    "lng": 126.968148438254,
    "place": "서울특별시 중구 만리재로 215",
    "operating_time": "18:00 -23:00",
    "fee": "무료",
    "subway": null,
    "url": "https://www.instagram.com/mediaartseoul"
  },
  {
    "id": "26",
    "name": "덕수궁",
    "category": "문화/체육",
    "lat": 37.5656250952955,
    "lng": 126.97469099468877,
    "place": "서울특별시 중구 세종대로 99",
    "operating_time": "09:00~21:00 (입장마감 20:00)",
    "fee": "개인 1,000원, 단체(10인 이상) 800원",
    "subway": "지하철 1, 2호선 시청역 2번 출구 남버스 이용",
    "url": "https://royal.cha.go.kr/ROYAL/contents/menuInfo-dsg.do?grpCode=dsg"
  },
  {
    "id": "27",
    "name": "반포대교 달빛무지개 분수",
    "category": "공공시설",
    "lat": 37.5145518124606,
    "lng": 126.995962256954,
    "place": "서울 서초구 올림픽대로 2085-14",
    "operating_time": "성수기(7~8월) 12:00, 19:30, 20:00, 20:30, 21:00, 21:30",
    "fee": "무료",
    "subway": "지하철 3, 7, 9호선 고속터미널역 8-1번, 8-2번 출구 남버스 이용",
    "url": "https://hangang.seoul.go.kr/www/contents/856.do?mid=849"
  },
  {
    "id": "30",
    "name": "세빛섬",
    "category": "문화/체육",
    "lat": 37.5124362037118,
    "lng": 126.995962256954,
    "place": "서울특별시 서초구 올림픽대로 2085-14",
    "operating_time": "개별시설별 이용시간 있음",
    "fee": "무료입장 가능, 개별 시설 이용료 별도",
    "subway": "지하철 3, 7, 9호선 8-1번 출구 남버스 이용",
    "url": "https://www.somesevit.co.kr/"
  },
  {
    "id": "32",
    "name": "낙산공원 - 한양도성 성곽길",
    "category": "공원/광장",
    "lat": 37.579840084989,
    "lng": 127.008253028696,
    "place": "서울특별시 종로구 낙산성곽이길 173",
    "operating_time": "상시개방",
    "fee": "무료",
    "subway": "지하철 4호선 혜화역 2번 출구 남버스 10분",
    "url": "https://parks.seoul.go.kr/template/sub/naksan.do"
  },
  {
    "id": "33",
    "name": "아라비아 광화",
    "category": "문화/체육",
    "lat": 37.5718478584908,
    "lng": 126.976168275947,
    "place": "서울특별시 종로구 세종대로 175",
    "operating_time": "일몰~23:00",
    "fee": "무료",
    "subway": "지하철 5호선 광화문역 7번 출구 남버스 이용",
    "url": "https://www.instagram.com/mediaartseoul/"
  },
  {
    "id": "36",
    "name": "한강대교",
    "category": "공공시설",
    "lat": 37.5276608637794,
    "lng": 126.962182447512,
    "place": "서울특별시 용산구 이촌로29길 1-11",
    "operating_time": "일몰 30분후 이후 ~ 23:00 이후",
    "fee": "무료",
    "subway": "(북단) 지하철 4호선 신용산역 2,3번출구 남버스 15분",
    "url": null
  },
  {
    "id": "37",
    "name": "동작대교",
    "category": "공공시설",
    "lat": 37.51007066016623,
    "lng": 126.98138294783693,
    "place": "서울 용산구 이촌동 385",
    "operating_time": "일몰 30분후 이후 ~ 23:00 이후",
    "fee": "무료",
    "subway": "(북단) 지하철 4호선 이촌역 3-1번출구 남버스 20분",
    "url": null
  },
  {
    "id": "38",
    "name": "서울시립미술관 서소문본관",
    "category": "공공시설",
    "lat": 37.5641060692766,
    "lng": 126.973699316136,
    "place": "서울특별시 중구 덕수궁길 61",
    "operating_time": "화~금 10:00~20:00 / 토, 일, 공휴일 하절기 10:00~19:00",
    "fee": "무료(특별전 유료)",
    "subway": "지하철 1, 2호선 시청역 1번, 10번, 11번, 12번 출구 남버스 이용",
    "url": "https://sema.seoul.go.kr/"
  },
  {
    "id": "40",
    "name": "덕수궁 돌담길",
    "category": "가로/마을",
    "lat": 37.564976656898445,
    "lng": 126.97602682975977,
    "place": "서울특별시 중구 세종대로 99",
    "operating_time": "연중무휴",
    "fee": "무료",
    "subway": "지하철 1, 2호선 시청역 2번출구 남버스 5분",
    "url": null
  },
  {
    "id": "41",
    "name": "광진교 8번가",
    "category": "문화/체육",
    "lat": 37.5451462595072,
    "lng": 127.112687934633,
    "place": "서울 광진구 천호대로 527-2",
    "operating_time": "4월~10월(12:00~20:00), 3월,11월(12:00~18:00)",
    "fee": "무료",
    "subway": "지하철 5호선 광나루역(남버스 약 15분)",
    "url": "https://riverview8.co.kr/rv/html/"
  },
  {
    "id": "44",
    "name": "뚝섬 음악분수",
    "category": "공공시설",
    "lat": 37.5278618984384,
    "lng": 127.073807096279,
    "place": "서울 광진구 자양동 435",
    "operating_time": "성수기(7~8월) 12:00~21:00, 비수기(4~6월, 9~10월) 12:00~20:00",
    "fee": "무료",
    "subway": "지하철 7호선 뚝섬유원지역 2번 출구 남버스 이용",
    "url": "https://hangang.seoul.go.kr/www/contents/859.do"
  },
  {
    "id": "45",
    "name": "올림픽공원 루미나리에",
    "category": "공원/광장",
    "lat": 37.509081251676484,
    "lng": 127.10290138635898,
    "place": "서울 송파구 오금동 22-6",
    "operating_time": "17:30~22:30",
    "fee": "무료",
    "subway": "지하철 2·8호선 잠실역",
    "url": "https://www.songpa.go.kr/culture/detailInfo.do"
  },
  {
    "id": "47",
    "name": "선유도공원",
    "category": "공원/광장",
    "lat": 37.5423832345578,
    "lng": 126.901819342041,
    "place": "서울특별시 영등포구 선유로 343",
    "operating_time": "06:00 - 24:00",
    "fee": "무료",
    "subway": "선유도역 - 9호선 (남버스 약 10분)",
    "url": "https://parks.seoul.go.kr/template/sub/seonyudo.do"
  },
  {
    "id": "49",
    "name": "북부부두빛거리(화랑대천철도공원 내)",
    "category": "공원/광장",
    "lat": 37.6244509765399,
    "lng": 127.093089721731,
    "place": "서울특별시 노원구 하랑로 608",
    "operating_time": "화~일요일, 일몰전 30분~22:00",
    "fee": "무료",
    "subway": "6호선 하랑대역 4번출구 하차 후 남버스 10분",
    "url": "https://www.nowon.kr"
  },
  {
    "id": "51",
    "name": "성산대교",
    "category": "공공시설",
    "lat": 37.5514767278681,
    "lng": 126.891604816192,
    "place": "서울 마포구 망원동 306-53",
    "operating_time": "일몰 30분후 이후 ~ 23:00 이후",
    "fee": "무료",
    "subway": "(북단) 지하철 6호선 마포구청역 6번 출구로 남쪽 남버스",
    "url": null
  }
]